[
    {
        "name": "Activity Center",
        "location_from_yaml": "Activity Center, Tempe, AZ",
        "dates": [
            "1977/10/06"
        ],
        "latitude": 33.425,
        "longitude": -111.931,
        "city": "Tempe",
        "state": "Arizona",
        "country": "USA"
    },
    {
        "name": "Arlington Theater",
        "location_from_yaml": "Arlington Theater, Santa Barbara, CA",
        "dates": [
            "1978/01/13"
        ],
        "latitude": 34.425,
        "longitude": -119.706,
        "city": "Santa Barbara",
        "state": "California",
        "country": "USA"
    },
    {
        "name": "Arrowhead Stadium",
        "location_from_yaml": "Arrowhead Stadium, Kansas City, MO",
        "dates": [
            "1978/07/01"
        ],
        "latitude": 39.049,
        "longitude": -94.484,
        "city": "Kansas City",
        "state": "Missouri",
        "country": "USA"
    },
    {
        "name": "Assembly Center",
        "location_from_yaml": "Assembly Center, Baton Rouge, LA",
        "dates": [
            "1977/10/16"
        ],
        "latitude": 30.415,
        "longitude": -91.185,
        "city": "Baton Rouge",
        "state": "Louisiana",
        "country": "USA"
    },
    {
        "name": "Assembly Hall",
        "location_from_yaml": "Assembly Hall, Bloomington, IN",
        "dates": [
            "1977/10/30"
        ],
        "latitude": 39.181,
        "longitude": -86.522,
        "city": "Bloomington",
        "state": "Indiana",
        "country": "USA"
    },
    {
        "name": "Auditorium Theater",
        "location_from_yaml": "Auditorium Theater, Chicago, IL",
        "dates": [
            "1977/05/12",
            "1977/05/13"
        ],
        "latitude": 41.876,
        "longitude": -87.625,
        "city": "Chicago",
        "state": "Illinois",
        "country": "USA"
    },
    {
        "name": "Autzen Stadium",
        "location_from_yaml": "Autzen Stadium, Eugene, OR",
        "dates": [
            "1978/06/25"
        ],
        "latitude": 44.058,
        "longitude": -123.068,
        "city": "Eugene",
        "state": "Oregon",
        "country": "USA"
    },
    {
        "name": "Bakersfield Memorial Auditorium",
        "location_from_yaml": "Bakersfield Memorial Auditorium, Bakersfield, CA",
        "dates": [
            "1978/01/14"
        ],
        "latitude": 35.413,
        "longitude": -118.97,
        "city": "Bakersfield",
        "state": "California",
        "country": "USA"
    },
    {
        "name": "Baltimore Civic Center",
        "location_from_yaml": "Baltimore Civic Center, Baltimore, MD",
        "dates": [
            "1977/05/26"
        ],
        "latitude": 39.289,
        "longitude": -76.619,
        "city": "Baltimore",
        "state": "Maryland",
        "country": "USA"
    },
    {
        "name": "Barton Hall",
        "location_from_yaml": "Barton Hall, Ithaca, NY",
        "dates": [
            "1977/05/08"
        ],
        "latitude": 42.446,
        "longitude": -76.48,
        "city": "Ithaca",
        "state": "New York",
        "country": "USA"
    },
    {
        "name": "Boston Garden",
        "location_from_yaml": "Boston Garden, Boston, MA",
        "dates": [
            "1977/05/07"
        ],
        "latitude": 42.364,
        "longitude": -71.061,
        "city": "Boston",
        "state": "Massachusetts",
        "country": "USA"
    },
    {
        "name": "Boston Music Hall",
        "location_from_yaml": "Boston Music Hall, Boston, MA",
        "dates": [
            "1978/11/13",
            "1978/11/14"
        ],
        "latitude": 42.356,
        "longitude": -71.061,
        "city": "Boston",
        "state": "Massachusetts",
        "country": "USA"
    },
    {
        "name": "Boutwell Auditorium",
        "location_from_yaml": "Boutwell Auditorium, Birmingham, AL",
        "dates": [
            "1978/12/15"
        ],
        "latitude": 33.522,
        "longitude": -86.811,
        "city": "Birmingham",
        "state": "Alabama",
        "country": "USA"
    },
    {
        "name": "Broome County Arena",
        "location_from_yaml": "Broome County Arena, Binghamton, NY",
        "dates": [
            "1977/11/06"
        ],
        "latitude": 42.096,
        "longitude": -75.913,
        "city": "Binghampton",
        "state": "New York",
        "country": "USA"
    },
    {
        "name": "Cameron Indoor Stadium",
        "location_from_yaml": "Cameron Indoor Stadium, Durham, NC",
        "dates": [
            "1978/04/12"
        ],
        "latitude": 35.998,
        "longitude": -78.942,
        "city": "Durham",
        "state": "North Carolina",
        "country": "USA"
    },
    {
        "name": "Campus Stadium",
        "location_from_yaml": "Campus Stadium, Santa Barbara, CA",
        "dates": [
            "1978/06/04"
        ],
        "latitude": 34.421,
        "longitude": -119.854,
        "city": "Santa Barbara",
        "state": "California",
        "country": "USA"
    },
    {
        "name": "Capital Centre",
        "location_from_yaml": "Capital Centre, Landover`, MD",
        "dates": [
            "1978/11/23"
        ],
        "latitude": 38.906,
        "longitude": -77.02,
        "city": "Landover",
        "state": "Maryland",
        "country": "USA"
    },
    {
        "name": "Capitol Theatre",
        "location_from_yaml": "Capitol Theatre, Passaic, NJ",
        "dates": [
            "1977/04/25",
            "1977/04/26",
            "1977/04/27",
            "1978/11/24"
        ],
        "latitude": 41.002,
        "longitude": -73.666,
        "city": "Passaic",
        "state": "New Jersey",
        "country": "USA"
    },
    {
        "name": "Cassell Coliseum",
        "location_from_yaml": "Cassell Coliseum, Blacksburg, VA",
        "dates": [
            "1978/04/14"
        ],
        "latitude": 37.223,
        "longitude": -80.419,
        "city": "Blacksburg",
        "state": "Virginia",
        "country": "USA"
    },
    {
        "name": "Cleveland Music Hall",
        "location_from_yaml": "Cleveland Music Hall, Cleveland, OH",
        "dates": [
            "1978/11/20"
        ],
        "latitude": 41.506,
        "longitude": -81.693,
        "city": "Cleveland",
        "state": "Ohio",
        "country": "USA"
    },
    {
        "name": "Cobo Arena",
        "location_from_yaml": "Cobo Arena, Detroit, MI",
        "dates": [
            "1977/11/01"
        ],
        "latitude": 42.327,
        "longitude": -83.049,
        "city": "Detroit",
        "state": "Michigan",
        "country": "USA"
    },
    {
        "name": "College Of William and Mary",
        "location_from_yaml": "College Of William and Mary, Williamsburg, VA",
        "dates": [
            "1978/04/15"
        ],
        "latitude": 37.271,
        "longitude": -76.716,
        "city": "Wiliiamsburg",
        "state": "Virginia",
        "country": "USA"
    },
    {
        "name": "Community War Memorial",
        "location_from_yaml": "Community War Memorial, Rochester, NY",
        "dates": [
            "1977/11/05",
            "1978/11/21"
        ],
        "latitude": 43.154,
        "longitude": -77.611,
        "city": "Rochester",
        "state": "New York",
        "country": "USA"
    },
    {
        "name": "Cotterell Gym",
        "location_from_yaml": "Cotterell Gym, Hamilton, NY",
        "dates": [
            "1977/11/04"
        ],
        "latitude": 42.816,
        "longitude": -75.543,
        "city": "Hamilton",
        "state": "New York",
        "country": "USA"
    },
    {
        "name": "Curtis Hixon Convention Hall",
        "location_from_yaml": "Curtis Hixon Convention Hall, Tampa, FL",
        "dates": [
            "1978/04/06",
            "1978/12/13"
        ],
        "latitude": 27.949,
        "longitude": -82.462,
        "city": "Tampa",
        "state": "Florida",
        "country": "USA"
    },
    {
        "name": "Dallas Convention Center Arena",
        "location_from_yaml": "Dallas Convention Center Arena, Dallas, TX",
        "dates": [
            "1978/12/22"
        ],
        "latitude": 32.774,
        "longitude": -96.802,
        "city": "Dallas",
        "state": "Texas",
        "country": "USA"
    },
    {
        "name": "Dane County Coliseum",
        "location_from_yaml": "Dane County Coliseum, Madison, WI",
        "dates": [
            "1978/02/03"
        ],
        "latitude": 43.047,
        "longitude": -89.379,
        "city": "Madison",
        "state": "Wisconsin",
        "country": "USA"
    },
    {
        "name": "Evans Field House",
        "location_from_yaml": "Evans Field House, DeKalb, IL",
        "dates": [
            "1977/10/29"
        ],
        "latitude": 41.936,
        "longitude": -88.772,
        "city": "DeKalb",
        "state": "Illinois",
        "country": "USA"
    },
    {
        "name": "Field House",
        "location_from_yaml": "Field House, Cincinnati, OH",
        "dates": [
            "1977/11/02"
        ],
        "latitude": 39.105,
        "longitude": -84.641,
        "city": "Cincinnati",
        "state": "Ohio",
        "country": "USA"
    },
    {
        "name": "Field House",
        "location_from_yaml": "Field House, Troy, NY",
        "dates": [
            "1978/05/07"
        ],
        "latitude": 42.733,
        "longitude": -73.67,
        "city": "Troy",
        "state": "New York",
        "country": "USA"
    },
    {
        "name": "Fox Theatre",
        "location_from_yaml": "Fox Theatre, Atlanta, GA",
        "dates": [
            "1977/05/18",
            "1977/05/19",
            "1978/04/10",
            "1978/04/11",
            "1978/12/17"
        ],
        "latitude": 33.773,
        "longitude": -84.385,
        "city": "Atlanta",
        "state": "Georgia",
        "country": "USA"
    },
    {
        "name": "Giants Stadium",
        "location_from_yaml": "Giants Stadium, East Rutherford, NJ",
        "dates": [
            "1978/09/02"
        ],
        "latitude": 40.814,
        "longitude": -74.074,
        "city": "East Rutherford",
        "state": "New Jersey",
        "country": "USA"
    },
    {
        "name": "Gizah Sound and Light Theater",
        "location_from_yaml": "Gizah Sound and Light Theater, Cairo, ",
        "dates": [
            "1978/09/14",
            "1978/09/15",
            "1978/09/16"
        ],
        "latitude": 29.977,
        "longitude": 31.132,
        "city": "Cairo",
        "state": null,
        "country": "Egypt"
    },
    {
        "name": "Golden Hall",
        "location_from_yaml": "Golden Hall, San Diego, CA",
        "dates": [
            "1978/01/07",
            "1978/01/08",
            "1978/12/27",
            "1978/12/28"
        ],
        "latitude": 32.717,
        "longitude": -117.164,
        "city": "San Diego",
        "state": "California",
        "country": "USA"
    },
    {
        "name": "Hartford Civic Center",
        "location_from_yaml": "Hartford Civic Center, Hartford, CT",
        "dates": [
            "1977/05/28"
        ],
        "latitude": 41.769,
        "longitude": -72.677,
        "city": "Hartford",
        "state": "Connecticut",
        "country": "USA"
    },
    {
        "name": "Hofheinz Pavilion",
        "location_from_yaml": "Hofheinz Pavilion, Houston, TX",
        "dates": [
            "1977/10/14"
        ],
        "latitude": 29.725,
        "longitude": -95.347,
        "city": "Houston",
        "state": "Texas",
        "country": "USA"
    },
    {
        "name": "Horton Field House",
        "location_from_yaml": "Horton Field House, Normal, IL",
        "dates": [
            "1978/04/24"
        ],
        "latitude": 40.512,
        "longitude": -88.998,
        "city": "Normal",
        "state": "Illinois",
        "country": "USA"
    },
    {
        "name": "Huntington Civic Center",
        "location_from_yaml": "Huntington Civic Center, Huntington, WV",
        "dates": [
            "1978/04/16"
        ],
        "latitude": 38.422,
        "longitude": -82.447,
        "city": "Huntington",
        "state": "West Virginia",
        "country": "USA"
    },
    {
        "name": "Jai",
        "location_from_yaml": "Jai, Miami, FL",
        "dates": [
            "1978/12/12"
        ],
        "latitude": 25.808,
        "longitude": -80.257,
        "city": "Miami",
        "state": "Florida",
        "country": "USA"
    },
    {
        "name": "Lakeland Civic Center Arena",
        "location_from_yaml": "Lakeland Civic Center Arena, Lakeland, FL",
        "dates": [
            "1977/05/21"
        ],
        "latitude": 28.041,
        "longitude": -81.963,
        "city": "Lakeland",
        "state": "Florida",
        "country": "USA"
    },
    {
        "name": "Lloyd Noble Center",
        "location_from_yaml": "Lloyd Noble Center, Norman, OK",
        "dates": [
            "1977/10/11"
        ],
        "latitude": 35.187,
        "longitude": -97.444,
        "city": "Norman",
        "state": "Oklahoma",
        "country": "USA"
    },
    {
        "name": "Manor Downs",
        "location_from_yaml": "Manor Downs, Austin, TX",
        "dates": [
            "1977/10/12"
        ],
        "latitude": 30.359,
        "longitude": -97.577,
        "city": "Austin",
        "state": "Texas",
        "country": "USA"
    },
    {
        "name": "McArthur Court",
        "location_from_yaml": "McArthur Court, Eugene, OR",
        "dates": [
            "1978/01/22"
        ],
        "latitude": 44.042,
        "longitude": -123.074,
        "city": "Eugene",
        "state": "Oregon",
        "country": "USA"
    },
    {
        "name": "McNichols Sports Arena",
        "location_from_yaml": "McNichols Sports Arena, Denver, CO",
        "dates": [
            "1977/10/09"
        ],
        "latitude": 39.78,
        "longitude": -104.971,
        "city": "Denver",
        "state": "Colorado",
        "country": "USA"
    },
    {
        "name": "Memorial Coliseum",
        "location_from_yaml": "Memorial Coliseum, Jackson, MS",
        "dates": [
            "1978/12/19"
        ],
        "latitude": 32.33,
        "longitude": -90.18,
        "city": "Jackson",
        "state": "Mississippi",
        "country": "USA"
    },
    {
        "name": "Memorial Coliseum",
        "location_from_yaml": "Memorial Coliseum, Tuscaloosa, AL",
        "dates": [
            "1977/05/17"
        ],
        "latitude": 33.203,
        "longitude": -87.54,
        "city": "Tuscaloosa",
        "state": "Alabama",
        "country": "USA"
    },
    {
        "name": "Milwaukee Auditorium",
        "location_from_yaml": "Milwaukee Auditorium, Milwaukee, WI",
        "dates": [
            "1978/02/04"
        ],
        "latitude": 43.049,
        "longitude": -87.91,
        "city": "Milwaukee",
        "state": "Wisconsin",
        "country": "USA"
    },
    {
        "name": "Moody Coliseum",
        "location_from_yaml": "Moody Coliseum, Dallas, TX",
        "dates": [
            "1977/10/15"
        ],
        "latitude": 32.841,
        "longitude": -96.781,
        "city": "Dallas",
        "state": "Texas",
        "country": "USA"
    },
    {
        "name": "NBC Studios",
        "location_from_yaml": "NBC Studios, New York, NY",
        "dates": [
            "1978/11/11"
        ],
        "latitude": 40.759,
        "longitude": -73.98,
        "city": "New York",
        "state": "New York",
        "country": "USA"
    },
    {
        "name": "Nashville Municipal Auditorium",
        "location_from_yaml": "Nashville Municipal Auditorium, Nashville, TN",
        "dates": [
            "1978/04/22",
            "1978/12/16"
        ],
        "latitude": 36.168,
        "longitude": -86.783,
        "city": "Nashville",
        "state": "Tennessee",
        "country": "USA"
    },
    {
        "name": "Omaha Civic Auditorium",
        "location_from_yaml": "Omaha Civic Auditorium, Omaha, NE",
        "dates": [
            "1978/07/05"
        ],
        "latitude": 41.261,
        "longitude": -95.94,
        "city": "Omaha",
        "state": "Nebraska",
        "country": "USA"
    },
    {
        "name": "Onondaga County War Memorial",
        "location_from_yaml": "Onondaga County War Memorial, Syracuse, NY",
        "dates": [
            "1978/05/09"
        ],
        "latitude": 43.045,
        "longitude": -76.148,
        "city": "Syracuse",
        "state": "New York",
        "country": "USA"
    },
    {
        "name": "Paramount Northwest Theatre",
        "location_from_yaml": "Paramount Northwest Theatre, Seattle, WA",
        "dates": [
            "1977/09/28",
            "1977/09/29"
        ],
        "latitude": 47.614,
        "longitude": -122.331,
        "city": "Seattle",
        "state": "Washington",
        "country": "USA"
    },
    {
        "name": "Paramount Theater",
        "location_from_yaml": "Paramount Theater, Portland, OR",
        "dates": [
            "1977/10/01",
            "1977/10/02"
        ],
        "latitude": 45.517,
        "longitude": -122.681,
        "city": "Portland",
        "state": "Oregon",
        "country": "USA"
    },
    {
        "name": "Patrick Gym",
        "location_from_yaml": "Patrick Gym, Burlington, VT",
        "dates": [
            "1978/05/06"
        ],
        "latitude": 44.471,
        "longitude": -73.195,
        "city": "Burlington",
        "state": "Vermont",
        "country": "USA"
    },
    {
        "name": "Pauley Pavilion",
        "location_from_yaml": "Pauley Pavilion, Los Angeles, CA",
        "dates": [
            "1978/12/30"
        ],
        "latitude": 34.071,
        "longitude": -118.447,
        "city": "Los Angeles",
        "state": "California",
        "country": "USA"
    },
    {
        "name": "Pittsburgh Civic Arena",
        "location_from_yaml": "Pittsburgh Civic Arena, Pittsburgh, PA",
        "dates": [
            "1978/04/18"
        ],
        "latitude": 40.44,
        "longitude": -79.99,
        "city": "Pittsburgh",
        "state": "Pennsylvania",
        "country": "USA"
    },
    {
        "name": "Providence Civic Center",
        "location_from_yaml": "Providence Civic Center, Providence, RI",
        "dates": [
            "1978/05/14"
        ],
        "latitude": 41.824,
        "longitude": -71.418,
        "city": "Providence",
        "state": "Rhode Island",
        "country": "USA"
    },
    {
        "name": "Raceway Park",
        "location_from_yaml": "Raceway Park, Englishtown, NJ",
        "dates": [
            "1977/09/03"
        ],
        "latitude": 40.336,
        "longitude": -74.352,
        "city": null,
        "state": "New Jersey",
        "country": "USA"
    },
    {
        "name": "Red Rocks Amphitheatre",
        "location_from_yaml": "Red Rocks Amphitheatre, Morrison, CO",
        "dates": [
            "1978/07/07",
            "1978/07/08",
            "1978/08/30",
            "1978/08/31"
        ],
        "latitude": 39.666,
        "longitude": -105.205,
        "city": "Morrison",
        "state": "Colorado",
        "country": "USA"
    },
    {
        "name": "Robertson Gym",
        "location_from_yaml": "Robertson Gym, Santa Barbara, CA",
        "dates": [
            "1977/02/27"
        ],
        "latitude": 34.416,
        "longitude": -119.849,
        "city": "Santa Barbara",
        "state": "California",
        "country": "USA"
    },
    {
        "name": "Rupp Arena",
        "location_from_yaml": "Rupp Arena, Lexington, KY",
        "dates": [
            "1978/04/21"
        ],
        "latitude": 38.049,
        "longitude": -84.503,
        "city": "Lexington",
        "state": "Kentucky",
        "country": "USA"
    },
    {
        "name": "Sacramento Memorial Auditorium",
        "location_from_yaml": "Sacramento Memorial Auditorium, Sacramento, CA",
        "dates": [
            "1978/01/17"
        ],
        "latitude": 38.579,
        "longitude": -121.486,
        "city": "Sacramento",
        "state": "California",
        "country": "USA"
    },
    {
        "name": "Selland Arena",
        "location_from_yaml": "Selland Arena, Fresno, CA",
        "dates": [
            "1978/01/15"
        ],
        "latitude": 36.733,
        "longitude": -119.783,
        "city": "Fresno",
        "state": "California",
        "country": "USA"
    },
    {
        "name": "Shrine Auditorium",
        "location_from_yaml": "Shrine Auditorium, Los Angeles, CA",
        "dates": [
            "1978/01/10",
            "1978/01/11"
        ],
        "latitude": 34.024,
        "longitude": -118.281,
        "city": "Los Angeles",
        "state": "California",
        "country": "USA"
    },
    {
        "name": "Soldiers & Sailors Memorial Hall",
        "location_from_yaml": "Soldiers & Sailors Memorial Hall, Kansas City, KS",
        "dates": [
            "1977/10/28"
        ],
        "latitude": 39.112,
        "longitude": -94.627,
        "city": "Kansas City",
        "state": "Kansas",
        "country": "USA"
    },
    {
        "name": "Sportatorium",
        "location_from_yaml": "Sportatorium, Pembroke Pines, FL",
        "dates": [
            "1977/05/22",
            "1978/04/07"
        ],
        "latitude": 26.009,
        "longitude": -80.375,
        "city": "Pembroke Pines",
        "state": "Florida",
        "country": "USA"
    },
    {
        "name": "Springfield Civic Center Arena",
        "location_from_yaml": "Springfield Civic Center Arena, Springfield, MA",
        "dates": [
            "1977/04/23",
            "1978/05/11"
        ],
        "latitude": 42.102,
        "longitude": -72.587,
        "city": "Springfield",
        "state": "Massachusetts",
        "country": "USA"
    },
    {
        "name": "St. Louis Arena",
        "location_from_yaml": "St. Louis Arena, St. Louis, MO",
        "dates": [
            "1977/05/15"
        ],
        "latitude": 38.644,
        "longitude": -90.229,
        "city": "St. Louis",
        "state": "Missouri",
        "country": "USA"
    },
    {
        "name": "St. Paul Civic Center Arena",
        "location_from_yaml": "St. Paul Civic Center Arena, St. Paul, MN",
        "dates": [
            "1977/05/11",
            "1978/07/03"
        ],
        "latitude": 39.436,
        "longitude": -85.631,
        "city": "St. Paul",
        "state": "Minnesota",
        "country": "USA"
    },
    {
        "name": "Stockton Civic Auditorium",
        "location_from_yaml": "Stockton Civic Auditorium, Stockton, CA",
        "dates": [
            "1978/01/18"
        ],
        "latitude": 37.959,
        "longitude": -121.293,
        "city": "Stockton",
        "state": "California",
        "country": "USA"
    },
    {
        "name": "Swing Auditorium",
        "location_from_yaml": "Swing Auditorium, San Bernardino, CA",
        "dates": [
            "1977/02/26",
            "1978/01/06"
        ],
        "latitude": 34.109,
        "longitude": -117.29,
        "city": "San Bernardino",
        "state": "California",
        "country": "USA"
    },
    {
        "name": "The Forum",
        "location_from_yaml": "The Forum, Inglewood, CA",
        "dates": [
            "1977/06/04"
        ],
        "latitude": 33.958,
        "longitude": -118.342,
        "city": "Inglewood",
        "state": "California",
        "country": "USA"
    },
    {
        "name": "The Mosque",
        "location_from_yaml": "The Mosque, Richmond, VA",
        "dates": [
            "1977/05/25"
        ],
        "latitude": 37.546,
        "longitude": -77.452,
        "city": "Richmond",
        "state": "Virginia",
        "country": "USA"
    },
    {
        "name": "The Palladium",
        "location_from_yaml": "The Palladium, New York, NY",
        "dates": [
            "1977/04/29",
            "1977/04/30",
            "1977/05/01",
            "1977/05/03",
            "1977/05/04"
        ],
        "latitude": 40.752,
        "longitude": -73.987,
        "city": "New York",
        "state": "New York",
        "country": "USA"
    },
    {
        "name": "The Spectrum",
        "location_from_yaml": "The Spectrum, Philadelphia, PA",
        "dates": [
            "1977/04/22",
            "1978/05/13"
        ],
        "latitude": 39.905,
        "longitude": -75.171,
        "city": "Philadelphia",
        "state": "Pennsylvania",
        "country": "USA"
    },
    {
        "name": "The Summit",
        "location_from_yaml": "The Summit, Houston, TX",
        "dates": [
            "1978/12/21"
        ],
        "latitude": 29.73,
        "longitude": -95.436,
        "city": "Houston",
        "state": "Texas",
        "country": "USA"
    },
    {
        "name": "Thompson Arena",
        "location_from_yaml": "Thompson Arena, Hanover, NH",
        "dates": [
            "1978/05/05"
        ],
        "latitude": 43.701,
        "longitude": -72.281,
        "city": "Hanover",
        "state": "New Hampshire",
        "country": "USA"
    },
    {
        "name": "Uni",
        "location_from_yaml": "Uni, Cedar Falls, IA",
        "dates": [
            "1978/02/05"
        ],
        "latitude": 42.512,
        "longitude": -92.465,
        "city": "Cedar Falls",
        "state": "Iowa",
        "country": "USA"
    },
    {
        "name": "University of New Mexico",
        "location_from_yaml": "University of New Mexico, Albuquerque, NM",
        "dates": [
            "1977/10/07"
        ],
        "latitude": 35.085,
        "longitude": -106.62,
        "city": "Albuquerque",
        "state": "New Mexico",
        "country": "USA"
    },
    {
        "name": "Uptown Theatre",
        "location_from_yaml": "Uptown Theatre, Chicago, IL",
        "dates": [
            "1978/01/30",
            "1978/01/31",
            "1978/02/01",
            "1978/05/16",
            "1978/05/17",
            "1978/11/16",
            "1978/11/17",
            "1978/11/18"
        ],
        "latitude": 41.97,
        "longitude": -87.66,
        "city": "Chicago",
        "state": "Illinois",
        "country": "USA"
    },
    {
        "name": "Veteran's Memorial Coliseum",
        "location_from_yaml": "Veteran's Memorial Coliseum, Jacksonville, FL",
        "dates": [
            "1978/04/08"
        ],
        "latitude": 30.326,
        "longitude": -81.645,
        "city": "Jacksonville",
        "state": "Florida",
        "country": "USA"
    },
    {
        "name": "Veterans Memorial Coliseum",
        "location_from_yaml": "Veterans Memorial Coliseum, New Haven, CT",
        "dates": [
            "1977/05/05",
            "1978/05/10"
        ],
        "latitude": 40.783,
        "longitude": -73.592,
        "city": "New Haven",
        "state": "Connecticut",
        "country": "USA"
    },
    {
        "name": "Veterans Memorial Hall",
        "location_from_yaml": "Veterans Memorial Hall, Berkeley, CA",
        "dates": [
            "1978/04/19"
        ],
        "latitude": 37.87,
        "longitude": -122.272,
        "city": "Berkeley",
        "state": "California",
        "country": "USA"
    },
    {
        "name": "War Memorial Auditorium",
        "location_from_yaml": "War Memorial Auditorium, Buffalo, NY",
        "dates": [
            "1977/05/09"
        ],
        "latitude": 42.938,
        "longitude": -78.879,
        "city": "Buffalo",
        "state": "New York",
        "country": "USA"
    },
    {
        "name": "Winterland Arena",
        "location_from_yaml": "Winterland Arena, San Francisco, CA",
        "dates": [
            "1977/03/18",
            "1977/03/19",
            "1977/03/20",
            "1977/06/07",
            "1977/06/08",
            "1977/06/09",
            "1977/12/27",
            "1977/12/29",
            "1977/12/30",
            "1977/12/31",
            "1978/10/17",
            "1978/10/18",
            "1978/10/20",
            "1978/10/21",
            "1978/10/22",
            "1978/12/31"
        ],
        "latitude": 37.786,
        "longitude": -122.435,
        "city": "San Francisco",
        "state": "California",
        "country": "USA"
    }
]
